,City,Lat,Lng,Max Temp,Humidity,Cloudiness,Wind Speed,Country,Date
1,Albany,42.6,-73.97,84.0,52,52,6.44,US,1592611481
2,Goderich,43.75,-81.72,75.99,57,57,3.85,CA,1592611273
3,Ribeira Grande,38.52,-28.7,65.01,88,88,17.22,PT,1592611481
4,Yellowknife,62.46,-114.35,75.2,29,29,13.87,CA,1592611481
6,Mount Gambier,-37.83,140.77,48.2,100,100,10.29,AU,1592611482
7,Ushuaia,-54.8,-68.3,35.6,93,93,5.82,AR,1592611482
8,Manokwari,-0.87,134.08,83.91,67,67,2.1,ID,1592611482
9,Busselton,-33.65,115.33,43.0,74,74,9.62,AU,1592611442
10,Barão de Melgaço,-16.19,-55.97,82.4,45,45,3.36,BR,1592611482
11,Sinnamary,5.38,-52.95,78.73,87,87,8.95,GF,1592611482
12,Mataura,-46.19,168.86,46.96,73,73,1.99,NZ,1592611482
13,Nampa,43.54,-116.56,82.0,26,26,6.93,US,1592611482
14,Puerto Ayora,-0.74,-90.35,71.01,92,92,8.01,EC,1592611482
15,Cidreira,-30.18,-50.21,65.93,89,89,11.59,BR,1592611483
16,Lavrentiya,65.58,-171.0,55.85,39,39,14.0,RU,1592611483
17,Rikitea,-23.12,-134.97,74.93,82,82,22.12,PF,1592611483
18,Samarai,-10.62,150.67,79.36,85,85,13.35,PG,1592611483
19,Nikolskoye,59.7,30.79,64.4,72,72,11.18,RU,1592611483
20,Natá,8.33,-80.52,75.99,80,80,2.53,PA,1592611483
21,Inta,66.03,60.17,41.27,93,93,16.75,RU,1592611483
22,La Ronge,55.1,-105.28,44.6,75,75,2.24,CA,1592611483
23,Hong Kong,22.29,114.16,86.0,70,70,5.01,HK,1592611484
24,Florence,43.77,11.25,63.0,82,82,2.24,IT,1592611441
25,Ikom,5.97,8.71,72.46,97,97,2.39,NG,1592611484
26,Touros,-5.2,-35.46,75.2,100,100,4.7,BR,1592611484
28,Nouadhibou,20.93,-17.03,73.4,69,69,18.34,MR,1592611484
29,Venado,22.93,-101.08,79.27,42,42,14.63,MX,1592611484
30,Valleyview,55.07,-117.29,72.23,59,59,4.18,CA,1592611484
31,Jamestown,42.1,-79.24,73.99,88,88,3.36,US,1592611309
32,Broken Hill,-31.95,141.43,53.6,58,58,5.82,AU,1592611485
33,Mar del Plata,-38.0,-57.56,55.99,93,93,9.17,AR,1592611239
35,Dikson,73.51,80.55,34.88,88,88,0.45,RU,1592611485
36,Leningradskiy,69.38,178.42,49.19,55,55,5.84,RU,1592611485
38,Senneterre,48.38,-77.23,86.0,30,30,6.93,CA,1592611485
39,Punta Arenas,-53.15,-70.92,35.6,100,100,18.34,CL,1592611485
40,Baymak,52.59,58.32,46.35,64,64,4.92,RU,1592611485
41,Mahabalipuram,12.63,80.17,87.8,58,58,8.05,IN,1592611486
42,Tasiilaq,65.61,-37.64,38.01,90,90,3.47,GL,1592611486
43,Arkhipo-Osipovka,44.37,38.52,68.52,83,83,3.49,RU,1592611486
44,Ladispoli,41.95,12.07,66.99,93,93,3.36,IT,1592611486
45,Tarboro,35.9,-77.54,77.0,73,73,4.7,US,1592611486
46,Killybegs,54.63,-8.45,51.01,88,88,1.01,IE,1592611486
48,Zhezkazgan,47.8,67.71,52.32,51,51,9.69,KZ,1592611486
49,Grindavik,63.84,-22.43,50.0,81,81,2.24,IS,1592611487
50,Avarua,-21.21,-159.78,75.2,57,57,11.41,CK,1592611327
51,Kapaa,22.08,-159.32,79.0,83,83,18.34,US,1592611487
52,Vila Velha,-20.33,-40.29,72.0,94,94,3.36,BR,1592611287
53,Brae,60.4,-1.35,53.6,100,100,2.24,GB,1592611487
54,Tura,25.52,90.22,74.26,95,95,6.4,IN,1592611487
55,Codrington,-38.27,141.97,52.47,82,82,10.85,AU,1592611487
56,Atuona,-9.8,-139.03,80.4,76,76,12.75,PF,1592611487
57,São João dos Patos,-6.5,-43.7,73.17,62,62,3.65,BR,1592611487
58,Port Alfred,-33.59,26.89,64.99,41,41,10.0,ZA,1592611425
59,Bambous Virieux,-20.34,57.76,72.0,68,68,16.11,MU,1592611488
60,Praia,14.92,-23.51,77.0,69,69,14.99,CV,1592611327
61,São João da Barra,-21.64,-41.05,72.63,89,89,12.97,BR,1592611488
62,Barrow,71.29,-156.79,37.4,86,86,8.05,US,1592611488
64,Bluff,-46.6,168.33,47.57,81,81,3.29,NZ,1592611488
65,Bethel,41.37,-73.41,75.99,69,69,5.01,US,1592611488
66,Aksarka,66.56,67.8,50.58,52,52,13.47,RU,1592611489
67,Waddān,29.16,16.14,85.03,15,15,7.14,LY,1592611489
68,Hobart,-42.88,147.33,48.0,93,93,5.82,AU,1592611368
69,Leshukonskoye,64.9,45.76,41.79,68,68,10.31,RU,1592611489
70,Kaitangata,-46.28,169.85,51.01,66,66,5.99,NZ,1592611489
71,Batagay,67.63,134.63,88.63,22,22,1.97,RU,1592611489
72,Carnarvon,-24.87,113.63,51.8,87,87,6.93,AU,1592611464
73,Cape Town,-33.93,18.42,62.01,87,87,6.93,ZA,1592611350
74,Chui,-33.7,-53.46,55.24,92,92,7.9,UY,1592611489
75,Broome,42.25,-75.83,72.0,73,73,5.14,US,1592611490
76,Champerico,14.3,-91.92,75.2,94,94,6.93,GT,1592611490
77,Pidhaytsi,49.27,25.13,66.99,85,85,4.0,UA,1592611490
78,Jati,24.35,68.27,86.5,76,76,13.94,PK,1592611490
79,Bentiu,9.23,29.83,74.57,78,78,5.37,SS,1592611490
80,Severo-Kuril'sk,50.68,156.12,42.17,91,91,19.28,RU,1592611490
82,Saint George,37.1,-113.58,95.0,8,8,8.05,US,1592611206
83,Batagay-Alyta,67.8,130.41,79.05,25,25,3.85,RU,1592611491
84,Airai,-8.93,125.41,63.63,98,98,5.46,TL,1592611491
85,Butaritari,3.07,172.79,81.61,80,80,16.73,KI,1592611491
86,Hermanus,-34.42,19.23,54.0,91,91,12.12,ZA,1592611491
87,Aykhal,66.0,111.5,68.0,45,45,4.47,RU,1592611491
88,Kirkland Lake,48.14,-80.04,87.8,29,29,8.05,CA,1592611249
90,Kununurra,-15.77,128.73,75.2,34,34,2.24,AU,1592611491
91,Vardø,70.37,31.11,43.03,77,77,18.37,NO,1592611491
92,Klaksvík,62.23,-6.59,50.0,93,93,20.8,FO,1592611492
93,Tuy Hoa,13.08,109.3,82.13,74,74,3.42,VN,1592611206
94,Dunedin,-45.87,170.5,52.0,66,66,13.0,NZ,1592611492
95,Bairiki Village,1.33,172.98,87.8,66,66,3.36,KI,1592611492
96,Chokurdakh,70.63,147.92,89.64,17,17,12.37,RU,1592611492
97,Urubichá,-15.38,-62.95,75.15,66,66,2.68,BO,1592611492
98,Upernavik,72.79,-56.15,38.95,74,74,7.7,GL,1592611492
99,Pisco,-13.7,-76.22,64.4,77,77,16.11,PE,1592611462
100,Lebu,-37.62,-73.65,52.23,86,86,13.58,CL,1592611492
101,Qandala,11.47,49.87,90.0,52,52,2.59,SO,1592611493
102,Kot Samaba,28.55,70.47,90.68,58,58,17.11,PK,1592611493
103,Hamilton,39.18,-84.53,86.0,37,37,4.7,US,1592611275
104,Kumul,42.8,93.45,79.48,28,28,11.45,CN,1592611493
105,‘Ewa Beach,21.32,-158.01,84.2,54,54,14.99,US,1592611493
106,Mount Isa,-20.73,139.5,73.4,43,43,9.17,AU,1592611493
107,Qaanaaq,77.48,-69.36,36.12,80,80,1.66,GL,1592611493
108,Port Elizabeth,-33.92,25.57,59.0,44,44,5.82,ZA,1592611493
109,Saint-Philippe,-21.36,55.77,69.8,73,73,19.46,RE,1592611494
110,Mahébourg,-20.41,57.7,71.6,68,68,16.11,MU,1592611494
111,Kaeo,-35.1,173.78,55.99,3,3,4.0,NZ,1592611494
112,Nome,64.5,-165.41,72.0,72,72,4.7,US,1592611494
113,Hokitika,-42.72,170.97,58.24,54,54,3.0,NZ,1592611381
114,Constitución,-35.33,-72.42,53.06,91,91,5.39,CL,1592611494
115,Ascension,30.22,-90.9,91.99,40,40,4.05,US,1592611494
116,Avera,33.19,-82.53,84.2,51,51,5.82,US,1592611494
117,Taoudenni,22.68,-3.98,97.25,17,17,2.59,ML,1592611494
118,Inhambane,-23.86,35.38,64.8,86,86,6.55,MZ,1592611495
119,Mackenzie,55.3,-123.17,73.4,49,49,4.7,CA,1592611495
120,Donskoye,45.46,41.97,64.4,82,82,2.24,RU,1592611495
121,Kavaratti,10.57,72.64,83.91,76,76,12.93,IN,1592611495
122,Kutum,14.2,24.67,72.79,22,22,3.69,SD,1592611495
123,Tuktoyaktuk,69.45,-133.04,48.2,76,76,11.41,CA,1592611495
125,Souillac,-20.52,57.52,71.6,68,68,16.11,MU,1592611495
126,Solnechnyy,50.72,136.63,50.77,85,85,5.55,RU,1592611496
127,Birjand,32.87,59.22,69.8,16,16,4.7,IR,1592611496
128,Cabo San Lucas,22.89,-109.91,91.4,27,27,8.05,MX,1592611496
129,Fort Nelson,58.81,-122.7,82.4,34,34,3.36,CA,1592611267
130,Puerto Vallarta,20.62,-105.23,84.2,70,70,12.75,MX,1592611208
131,Arraial do Cabo,-22.97,-42.03,62.6,93,93,11.3,BR,1592611496
132,East London,-33.02,27.91,66.61,33,33,7.27,ZA,1592611496
133,Vaini,-21.2,-175.2,77.0,73,73,17.22,TO,1592611496
134,Lüderitz,-26.65,15.16,60.8,38,38,3.36,NA,1592611496
136,Saint Paul Harbor,57.79,-152.41,53.6,71,71,14.99,US,1592611497
137,Mweka,-4.85,21.57,66.45,52,52,1.1,CD,1592611497
138,Hasaki,35.73,140.83,78.01,73,73,3.36,JP,1592611497
139,Knysna,-34.04,23.05,73.4,23,23,20.8,ZA,1592611497
140,Watertown,42.37,-71.18,82.99,54,54,16.11,US,1592611461
141,Quatre Cocos,-20.21,57.76,72.0,68,68,16.11,MU,1592611497
142,New Norfolk,-42.78,147.06,48.99,80,80,1.01,AU,1592611497
143,Pacific Grove,36.62,-121.92,72.0,56,56,9.17,US,1592611498
144,Richards Bay,-28.78,32.04,60.12,86,86,6.17,ZA,1592611498
145,Hilo,19.73,-155.09,82.4,58,58,4.7,US,1592611498
146,Grants Pass,42.44,-123.33,91.4,21,21,5.82,US,1592611498
147,Cayenne,4.93,-52.33,78.8,88,88,4.7,GF,1592611495
148,Yining,29.04,114.56,75.56,90,90,1.14,CN,1592611498
149,Pangoa,-12.12,-73.0,71.2,85,85,2.21,PE,1592611498
150,Sfântu Gheorghe,45.87,25.78,61.0,93,93,1.01,RO,1592611498
151,Tiksi,71.69,128.87,66.87,37,37,7.67,RU,1592611499
152,Flinders,-34.58,150.86,64.99,88,88,10.0,AU,1592611499
153,Carrickfergus,54.72,-5.81,55.0,93,93,6.93,GB,1592611499
154,Kruisfontein,-34.0,24.73,62.49,31,31,15.64,ZA,1592611303
155,Imbituba,-28.24,-48.67,64.4,93,93,2.24,BR,1592611499
156,Yumen,40.28,97.2,74.84,21,21,10.54,CN,1592611499
157,São Filipe,14.9,-24.5,76.06,76,76,9.86,CV,1592611499
158,Byron Bay,-28.65,153.62,60.8,87,87,9.17,AU,1592611291
160,Te Anau,-45.42,167.72,44.19,73,73,0.36,NZ,1592611500
161,Ilulissat,69.22,-51.1,53.6,34,34,18.34,GL,1592611500
164,Changji,44.02,87.32,66.2,42,42,6.71,CN,1592611500
165,Aksarayskiy,46.79,48.01,82.4,30,30,11.18,RU,1592611500
167,Riviere-au-Renard,49.0,-64.4,55.4,87,87,9.17,CA,1592611500
168,Camaná,-16.62,-72.71,62.47,77,77,5.21,PE,1592611501
170,Kavieng,-2.57,150.8,84.54,73,73,6.96,PG,1592611501
171,Bredasdorp,-34.53,20.04,55.4,87,87,6.67,ZA,1592611501
172,Coquimbo,-29.95,-71.34,55.4,93,93,1.12,CL,1592611294
173,Stephenville,32.22,-98.2,91.4,38,38,12.75,US,1592611501
174,Mossamedes,-15.2,12.15,72.0,55,55,5.57,AO,1592611501
175,Madera,37.17,-119.83,97.0,16,16,3.0,US,1592611501
177,Yuancheng,36.65,107.79,67.41,52,52,9.53,CN,1592611502
178,Deputatsky,69.3,139.9,79.48,25,25,6.31,RU,1592611502
179,Calama,-22.47,-68.93,59.0,12,12,4.7,CL,1592611232
180,Causapscal,48.35,-67.23,78.3,42,42,6.22,CA,1592611502
181,Henderson,36.04,-114.98,98.6,5,5,9.17,US,1592611304
182,Geraldton,-28.77,114.6,50.0,66,66,12.75,AU,1592611277
183,Valdosta,30.83,-83.28,89.6,40,40,3.89,US,1592611145
184,Castro,-24.79,-50.01,58.44,94,94,4.99,BR,1592611503
185,Gizo Government Station,-8.1,156.84,84.34,71,71,3.83,SB,1592611503
186,Udachny,66.42,112.4,68.0,45,45,4.47,RU,1592611331
187,Port Lincoln,-34.73,135.87,55.47,68,68,19.66,AU,1592611503
188,Puerto Escondido,15.85,-97.07,84.2,74,74,6.93,MX,1592611503
189,Fort-Shevchenko,44.51,50.26,84.06,30,30,19.57,KZ,1592611503
191,Afrikanda,67.44,32.78,41.52,81,81,5.35,RU,1592611504
192,Barra de Tecoanapa,16.52,-98.75,85.68,61,61,4.61,MX,1592611504
193,Khatanga,71.97,102.5,53.53,65,65,10.71,RU,1592611504
194,Hithadhoo,-0.6,73.08,83.64,71,71,8.84,MV,1592611504
195,Quelimane,-17.88,36.89,64.08,94,94,5.37,MZ,1592611504
196,Aden,12.78,45.04,86.07,82,82,5.57,YE,1592611504
197,Arrondissement de Bergerac,44.83,0.5,60.01,93,93,4.18,FR,1592611504
198,Longview,32.5,-94.74,91.4,41,41,11.41,US,1592611504
199,Tautira,-17.73,-149.15,86.0,70,70,4.7,PF,1592611505
200,Dera Bugti,29.03,69.15,84.96,58,58,6.91,PK,1592611505
201,Nishihara,26.18,127.76,86.0,83,83,13.87,JP,1592611505
202,Lagoa,39.05,-27.98,64.81,89,89,21.94,PT,1592611505
203,Bengkulu,-3.8,102.27,75.09,84,84,3.47,ID,1592611231
204,Mehamn,71.04,27.85,42.37,81,81,17.29,NO,1592611505
206,Clyde River,70.47,-68.59,33.8,68,68,16.11,CA,1592611505
207,Riyadh,24.69,46.72,82.4,20,20,4.7,SA,1592611371
208,Morros,-9.45,-46.3,72.12,50,50,3.89,BR,1592611506
211,Krasnosel'kup,65.7,82.47,48.69,61,61,11.72,RU,1592611506
212,Innisfail,-17.53,146.03,64.99,87,87,4.0,AU,1592611506
213,Marysville,48.05,-122.18,79.0,53,53,9.17,US,1592611267
214,Torbay,47.67,-52.73,45.0,90,90,1.01,CA,1592611506
215,Hargeisa,9.56,44.06,70.03,67,67,27.67,SO,1592611506
216,Paamiut,61.99,-49.67,38.95,87,87,9.84,GL,1592611507
217,Carupano,10.67,-63.26,79.09,87,87,10.18,VE,1592611507
218,Aromashevo,56.86,68.64,41.07,75,75,6.62,RU,1592611507
219,Waitati,-45.75,170.57,52.0,66,66,13.0,NZ,1592611507
220,Pochutla,15.74,-96.47,84.99,78,78,2.89,MX,1592611507
221,Meulaboh,4.14,96.13,76.42,86,86,4.56,ID,1592611507
222,Portland,45.52,-122.68,88.0,25,25,5.82,US,1592611498
223,Haines Junction,60.75,-137.51,67.6,33,33,5.03,CA,1592611507
224,Harper,4.38,-7.72,78.15,76,76,4.56,LR,1592611508
225,Asău,46.43,26.4,61.0,87,87,5.73,RO,1592611508
226,Zyryanka,65.75,150.85,88.74,21,21,2.46,RU,1592611508
227,Río Gallegos,-51.62,-69.22,32.0,86,86,6.93,AR,1592611236
228,Sabinas,27.85,-101.12,95.77,35,35,17.74,MX,1592611508
229,Dubai,25.26,55.3,91.4,79,79,8.05,AE,1592611161
230,Saint-Michel-des-Saints,46.68,-73.92,82.99,5,5,5.64,CA,1592611508
231,Todos Santos,23.45,-110.22,73.0,72,72,5.01,MX,1592611508
232,Umluj,25.02,37.27,76.71,78,78,3.6,SA,1592611509
233,Rumonge,-3.97,29.44,71.38,68,68,2.98,BI,1592611509
235,San Cristobal,7.77,-72.22,86.0,62,62,9.17,VE,1592611416
236,Okha,53.57,142.95,41.92,96,96,4.27,RU,1592611509
238,Lethem,3.38,-59.8,77.54,87,87,4.23,GY,1592611509
239,Sayyan,15.17,44.32,66.54,55,55,2.06,YE,1592611509
240,Biak,-0.91,122.88,80.13,77,77,6.64,ID,1592611510
241,Saskylakh,71.92,114.08,78.03,32,32,7.11,RU,1592611510
242,Ossora,59.24,163.07,56.97,67,67,7.52,RU,1592611510
243,Jiutai,44.15,125.83,66.2,82,82,4.47,CN,1592611510
244,Kahului,20.89,-156.47,86.0,48,48,24.16,US,1592611272
246,Kārsava,56.78,27.69,64.8,89,89,1.25,LV,1592611510
247,Fortuna,40.6,-124.16,59.0,93,93,10.29,US,1592611510
248,Raduzhny,62.1,77.47,42.49,77,77,6.04,RU,1592611510
250,George Town,5.41,100.34,77.0,100,100,3.36,MY,1592611511
251,Hastings,50.86,0.57,59.0,93,93,12.75,GB,1592611379
252,Havre-St-Pierre,50.23,-63.6,51.8,93,93,11.41,CA,1592611511
253,Pemba,-12.97,40.52,71.2,79,79,15.77,MZ,1592611511
254,Kirakira,-10.45,161.92,82.51,78,78,10.8,SB,1592611511
255,Banjar,-8.19,114.97,80.6,100,100,12.75,ID,1592611511
257,Ostrovnoy,68.05,39.51,42.46,82,82,22.55,RU,1592611512
258,La Reforma,25.08,-108.05,91.99,46,46,8.01,MX,1592611512
259,San Fernando del Valle de Catamarca,-28.47,-65.79,54.0,47,47,1.01,AR,1592611512
260,Saint Anthony,45.02,-93.22,75.99,47,47,6.93,US,1592611240
261,Baykit,61.67,96.37,69.15,48,48,2.01,RU,1592611512
262,Birao,10.28,22.79,76.51,77,77,4.97,CF,1592611512
263,Koslan,63.46,48.9,43.56,64,64,12.24,RU,1592611512
264,Narsaq,60.92,-46.05,44.6,70,70,11.41,GL,1592611512
265,Salalah,17.02,54.09,82.4,88,88,2.24,OM,1592611513
266,Benicarló,40.42,0.43,63.0,93,93,1.01,ES,1592611513
267,Boden,65.83,21.69,59.0,58,58,4.7,SE,1592611513
268,Muros,42.78,-9.06,62.01,88,88,1.99,ES,1592611513
269,Provideniya,64.38,-173.3,59.86,39,39,5.86,RU,1592611513
270,Radzyń Podlaski,51.78,22.62,68.0,100,100,3.36,PL,1592611513
271,Atambua,-9.11,124.89,76.24,77,77,6.87,ID,1592611513
272,Norman Wells,65.28,-126.83,78.8,36,36,5.82,CA,1592611513
273,Copiapó,-27.37,-70.33,55.4,82,82,5.82,CL,1592611513
274,Monrovia,6.3,-10.8,78.8,88,88,4.34,LR,1592611514
275,Sitka,57.05,-135.33,55.4,93,93,3.44,US,1592611514
276,Villablino,42.94,-6.32,55.99,82,82,1.54,ES,1592611514
277,Carutapera,-1.2,-46.02,76.32,90,90,6.22,BR,1592611514
278,Thompson,55.74,-97.86,48.2,87,87,6.93,CA,1592611385
279,Port Hardy,50.7,-127.42,64.4,82,82,6.93,CA,1592611514
280,Mitú,1.2,-70.17,74.03,96,96,0.87,CO,1592611514
281,Ponta do Sol,32.67,-17.1,69.8,73,73,12.75,PT,1592611514
282,Pevek,69.7,170.31,41.97,70,70,10.98,RU,1592611515
283,Makakilo City,21.35,-158.09,84.2,69,69,11.41,US,1592611515
284,Chara,56.91,118.26,58.75,60,60,2.19,RU,1592611515
285,Azul,-36.78,-59.86,51.01,82,82,1.99,AR,1592611279
286,Nanortalik,60.14,-45.24,38.86,91,91,2.06,GL,1592611515
287,Wertheim am Main,49.76,9.51,57.0,86,86,3.29,DE,1592611515
288,Fuling,29.7,107.39,71.87,90,90,3.09,CN,1592611515
289,Garoowe,8.41,48.48,80.96,55,55,23.96,SO,1592611515
291,Tortolì,39.93,9.66,68.0,64,64,4.7,IT,1592611516
292,Doha,25.29,51.53,84.2,48,48,2.24,QA,1592611516
293,Zemetchino,53.5,42.62,58.26,89,89,4.68,RU,1592611516
294,Saldanha,-33.01,17.94,60.8,77,77,1.12,ZA,1592611516
295,Saint-Pierre,-21.34,55.48,69.8,73,73,19.46,RE,1592611516
296,Potiskum,11.71,11.07,79.14,69,69,15.1,NG,1592611516
297,Faanui,-16.48,-151.75,80.17,75,75,3.24,PF,1592611516
298,Dowa,-13.65,33.94,50.54,94,94,1.79,MW,1592611516
299,Great Yarmouth,52.61,1.73,57.0,98,98,11.81,GB,1592611517
301,El Alto,-4.27,-81.21,64.42,88,88,19.53,PE,1592611517
302,Srednekolymsk,67.45,153.68,86.65,22,22,13.65,RU,1592611517
303,Severodvinsk,64.56,39.83,41.0,80,80,2.24,RU,1592611517
304,Kangaatsiaq,68.31,-53.46,39.34,81,81,27.11,GL,1592611517
305,Mishan,45.55,131.88,61.86,70,70,1.68,CN,1592611517
306,Huangmei,30.19,116.03,70.93,89,89,3.98,CN,1592611517
307,Cabiraoan,18.32,122.09,84.56,70,70,3.83,PH,1592611517
308,Talnakh,69.49,88.4,44.6,93,93,11.18,RU,1592611518
309,Curumaní,9.2,-73.54,79.0,87,87,3.4,CO,1592611518
310,Natividade,-21.04,-41.97,66.43,88,88,2.77,BR,1592611518
311,Angoche,-16.23,39.91,67.8,87,87,11.36,MZ,1592611518
312,Mountain Home,43.13,-115.69,82.4,24,24,12.75,US,1592611444
313,Katsuura,35.13,140.3,78.01,72,72,5.99,JP,1592611518
314,Alofi,-19.06,-169.92,78.8,61,61,16.11,NU,1592611518
315,Seoul,37.57,126.98,75.2,73,73,3.36,KR,1592611322
316,Ostróda,53.7,19.96,61.0,92,92,4.38,PL,1592611518
317,Bétaré Oya,5.6,14.08,67.68,95,95,1.52,CM,1592611519
318,Vila Praia de Âncora,41.81,-8.85,61.0,87,87,1.12,PT,1592611519
320,Bubaque,11.28,-15.83,82.09,81,81,12.15,GW,1592611519
321,Lorengau,-2.02,147.27,86.49,65,65,6.15,PG,1592611519
322,Makkah al Mukarramah,21.43,39.83,86.31,14,14,5.03,SA,1592611519
323,Sallanches,45.94,6.63,53.6,93,93,3.36,FR,1592611519
324,Bathsheba,13.22,-59.52,77.0,88,88,28.86,BB,1592611519
326,Owase,34.07,136.2,74.82,57,57,1.28,JP,1592611520
327,Coos Bay,43.37,-124.22,72.0,82,82,12.75,US,1592611520
328,Montes Claros,-16.73,-43.86,66.85,84,84,5.32,BR,1592611325
329,Naze,28.37,129.48,78.8,88,88,2.24,JP,1592611520
330,Banepā,27.63,85.52,69.8,100,100,0.45,NP,1592611520
331,Novosheshminsk,55.07,51.23,50.79,89,89,5.66,RU,1592611520
332,Comodoro Rivadavia,-45.87,-67.5,50.0,43,43,23.04,AR,1592611520
333,Lensk,60.73,114.93,68.27,67,67,2.28,RU,1592611520
334,Taltal,-25.4,-70.48,57.11,77,77,4.09,CL,1592611521
335,Sol'vychegodsk,61.33,46.92,46.13,74,74,8.12,RU,1592611521
336,Peniche,39.36,-9.38,61.0,87,87,4.0,PT,1592611521
338,Jacareacanga,-6.22,-57.75,76.93,67,67,2.06,BR,1592611521
339,Bambanglipuro,-7.95,110.28,78.13,83,83,6.35,ID,1592611521
340,Mineiros,-17.57,-52.55,66.16,65,65,5.97,BR,1592611446
341,Nacala,-14.54,40.67,68.29,82,82,11.7,MZ,1592611521
342,Adrar,20.5,-10.07,96.53,16,16,13.47,MR,1592611391
343,Tabuk,17.42,121.44,81.45,75,75,3.6,PH,1592611522
345,Aklavik,68.22,-135.01,51.8,87,87,10.29,CA,1592611522
346,Praia da Vitória,38.73,-27.07,68.0,77,77,8.43,PT,1592611522
347,Mastung,29.8,66.84,66.4,21,21,2.64,PK,1592611522
348,Fairbanks,64.84,-147.72,57.2,93,93,8.05,US,1592611263
349,Berja,36.85,-2.95,68.0,88,88,1.12,ES,1592611522
350,Lake Charles,30.21,-93.2,87.8,58,58,11.41,US,1592611295
351,Corning,42.14,-77.05,72.0,83,83,3.36,US,1592611243
352,Wasilla,61.58,-149.44,54.0,87,87,3.36,US,1592611523
353,Berea,41.37,-81.85,75.99,84,84,4.59,US,1592611523
354,Lompoc,34.64,-120.46,66.99,72,72,12.75,US,1592611523
355,Mitsamiouli,-11.38,43.28,77.97,67,67,14.14,KM,1592611523
356,Say,13.1,2.37,80.6,61,61,13.87,NE,1592611523
357,Evinayong,1.44,10.55,67.82,99,99,2.89,GQ,1592611523
358,Russell,32.35,-85.2,89.6,40,40,3.36,US,1592611523
359,Coyhaique,-45.58,-72.07,41.0,80,80,10.29,CL,1592611523
360,Longyearbyen,78.22,15.64,39.2,80,80,4.7,SJ,1592611524
361,Rupert,42.62,-113.68,75.2,31,31,5.82,US,1592611524
362,Alice Springs,-23.7,133.88,57.2,47,47,8.05,AU,1592611524
363,Minsk,53.9,27.57,64.4,82,82,4.47,BY,1592611475
364,Linxia Chengguanzhen,35.6,103.21,66.54,54,54,1.9,CN,1592611524
365,Bella Vista,36.43,-94.23,82.99,57,57,3.36,US,1592611414
366,Half Moon Bay,37.46,-122.43,75.0,87,87,11.41,US,1592611524
367,Ucluelet,48.93,-125.55,62.01,93,93,2.24,CA,1592611359
368,Batemans Bay,-35.72,150.18,66.0,71,71,5.26,AU,1592611525
369,Desaguadero,-16.57,-69.04,42.89,56,56,3.87,PE,1592611525
370,Iqaluit,63.75,-68.51,41.0,75,75,10.29,CA,1592611525
371,Bowen,-20.02,148.23,68.0,82,82,11.41,AU,1592611525
372,Vao,-22.67,167.48,69.06,83,83,23.55,NC,1592611525
373,Kathu,7.92,98.33,77.0,94,94,8.21,TH,1592611525
374,Esperance,-33.87,121.9,46.4,93,93,6.93,AU,1592611525
375,Saurimo,-9.66,20.39,56.19,48,48,5.55,AO,1592611525
376,San Patricio,19.22,-104.7,86.0,66,66,11.41,MX,1592611526
377,Province of Mantua,45.17,10.78,59.0,89,89,2.1,IT,1592611526
378,Mujiayingzi,42.12,118.78,78.8,36,36,10.29,CN,1592611526
379,Shanhecun,44.7,127.2,64.76,81,81,7.05,CN,1592611526
380,Mana,5.66,-53.78,78.44,88,88,8.03,GF,1592611526
381,Dhanbad,23.8,86.45,82.9,76,76,6.49,IN,1592611526
382,Pontianak,-0.03,109.33,76.21,90,90,5.21,ID,1592611526
383,Lamar,33.67,-95.58,91.4,43,43,13.87,US,1592611526
384,Bahía Honda,22.9,-83.16,81.95,82,82,7.09,CU,1592611526
385,Hammerfest,70.66,23.68,42.8,70,70,13.87,NO,1592611527
386,Johor Bahru,1.47,103.76,78.01,94,94,3.36,MY,1592611527
387,Whitefish,48.41,-114.34,64.4,72,72,6.93,US,1592611527
388,Departamento de Maldonado,-34.67,-54.92,55.0,93,93,5.82,UY,1592611447
389,Wolgast,54.05,13.77,60.01,91,91,8.93,DE,1592611527
390,Markivka,49.52,39.57,66.45,77,77,7.43,UA,1592611527
391,Taksimo,56.34,114.88,62.53,58,58,1.25,RU,1592611527
392,Pitimbu,-7.47,-34.81,75.2,100,100,5.82,BR,1592611527
393,Umm Kaddadah,13.6,26.69,87.57,38,38,8.28,SD,1592611528
394,Neyshabur,36.21,58.8,74.68,19,19,4.34,IR,1592611528
395,Alyangula,-13.85,136.42,78.8,78,78,5.82,AU,1592611528
396,Jilib,0.49,42.79,73.02,89,89,6.24,SO,1592611528
397,Banda Aceh,5.56,95.32,80.55,74,74,8.1,ID,1592611528
398,Porto Santo,33.07,-16.34,68.0,77,77,8.05,PT,1592611528
399,Sangar,63.92,127.47,73.04,48,48,7.43,RU,1592611528
400,Aranos,-24.13,19.12,47.98,51,51,11.99,NA,1592611528
401,Aksu,41.12,80.26,67.73,34,34,5.12,CN,1592611528
402,Pimenteiras,-6.25,-41.42,73.71,77,77,5.37,BR,1592611529
403,Sobolevo,54.43,31.9,60.71,87,87,3.38,RU,1592611529
404,Port Keats,-14.25,129.55,77.88,51,51,9.6,AU,1592611529
405,Ndioum,16.51,-14.65,87.8,52,52,4.7,SN,1592611529
406,Hīt,33.64,42.83,78.31,25,25,8.12,IQ,1592611529
407,Tubualá,9.52,-79.03,80.6,88,88,10.29,PA,1592611529
408,Mineral Wells,32.81,-98.11,93.2,41,41,14.99,US,1592611439
409,Aripuanã,-9.17,-60.63,77.56,64,64,1.41,BR,1592611529
410,Khasan,42.43,130.64,61.7,80,80,6.85,RU,1592611529
411,Iskateley,67.68,53.15,40.75,90,90,24.02,RU,1592611530
412,Charters Towers,-20.1,146.27,68.72,70,70,13.51,AU,1592611530
413,Palmer,42.16,-72.33,77.0,67,67,3.0,US,1592611530
415,Roald,62.58,6.13,63.0,87,87,5.82,NO,1592611530
416,Pangai,-19.8,-174.35,80.6,61,61,18.34,TO,1592611530
417,Rio Grande,-32.03,-52.1,60.01,95,95,10.51,BR,1592611266
418,Ajdabiya,30.76,20.23,81.64,22,22,8.63,LY,1592611530
419,Yerbogachën,61.28,108.01,66.06,54,54,2.48,RU,1592611531
420,Henties Bay,-22.12,14.28,67.12,40,40,5.53,NA,1592611531
422,Scarborough,54.28,-0.4,55.0,86,86,5.01,GB,1592611475
424,Morden,49.19,-98.1,71.6,35,35,8.05,CA,1592611531
425,Jequitinhonha,-16.43,-41.0,68.76,88,88,2.84,BR,1592611531
426,Xingcheng,40.62,120.72,79.03,50,50,11.72,CN,1592611531
428,Bereket,39.24,55.52,85.48,14,14,22.08,TM,1592611532
429,Oranjestad,12.52,-70.03,84.2,79,79,23.04,AW,1592611321
430,Vila Franca do Campo,37.72,-25.43,66.2,82,82,12.75,PT,1592611532
431,Tynset,62.28,10.78,51.8,81,81,5.82,NO,1592611532
432,Puri,19.8,85.85,84.2,89,89,4.7,IN,1592611532
433,Narrabri,-30.32,149.78,60.01,81,81,3.36,AU,1592611532
434,Khandyga,62.67,135.6,75.61,47,47,3.22,RU,1592611425
435,Waingapu,-9.66,120.26,79.14,74,74,15.39,ID,1592611532
437,Shihezi,44.3,86.03,71.62,25,25,5.57,CN,1592611533
438,Carnot,4.94,15.87,68.59,93,93,1.07,CF,1592611533
439,Oistins,13.07,-59.53,77.0,88,88,28.86,BB,1592611533
440,Robertsport,6.75,-11.37,77.92,83,83,6.33,LR,1592611533
441,Lata,40.16,-8.33,61.0,82,82,1.99,PT,1592611533
442,Acapulco de Juárez,16.86,-99.89,86.0,70,70,8.05,MX,1592611533
443,Filingué,14.35,3.32,93.29,38,38,15.48,NE,1592611533
444,Sarangani,5.4,125.46,84.15,73,73,12.06,PH,1592611533
445,Dingle,11.0,122.67,82.51,71,71,5.26,PH,1592611534
446,Chifeng,42.27,118.96,79.95,35,35,10.2,CN,1592611534
447,Cheney,47.49,-117.58,80.6,28,28,10.29,US,1592611534
448,Mindelo,16.89,-24.98,75.2,73,73,24.16,CV,1592611534
449,Eureka,40.8,-124.16,68.0,100,100,4.0,US,1592611534
450,Bloemfontein,-29.12,26.21,30.2,86,86,3.53,ZA,1592611534
451,Hobyo,5.35,48.53,78.8,65,65,23.49,SO,1592611534
452,Paka,4.64,103.44,77.0,94,94,3.36,MY,1592611534
453,Zarubino,42.63,131.09,60.71,80,80,5.66,RU,1592611534
454,Ancud,-41.87,-73.82,46.99,93,93,8.05,CL,1592611306
455,Rocha,-34.48,-54.33,52.92,89,89,4.43,UY,1592611535
456,Manta,-0.95,-80.73,78.8,78,78,11.41,EC,1592611480
459,Calvià,39.57,2.51,71.6,77,77,3.36,ES,1592611535
460,Key Biscayne,25.69,-80.16,78.8,94,94,12.75,US,1592611418
461,Palmital,-22.79,-50.22,66.04,80,80,4.7,BR,1592611535
462,Philadelphia,39.95,-75.16,80.6,57,57,10.29,US,1592611527
463,Los Llanos de Aridane,28.66,-17.92,71.6,68,68,10.29,ES,1592611536
465,San Luis,-33.3,-66.34,54.03,42,42,16.89,AR,1592611536
466,Ponta Delgada,37.73,-25.67,66.2,82,82,12.75,PT,1592611536
467,Prata,-19.31,-48.92,66.25,57,57,3.44,BR,1592611264
468,Hearst,49.68,-83.67,80.24,52,52,7.65,CA,1592611274
469,Nhulunbuy,-12.23,136.77,79.29,76,76,16.6,AU,1592611536
470,Coruripe,-10.13,-36.18,76.21,82,82,11.99,BR,1592611536
471,Conde,-7.26,-34.91,75.2,100,100,5.82,BR,1592611536
472,Morris,40.83,-74.53,77.0,78,78,1.01,US,1592611432
473,Chālūs,36.66,51.42,77.0,65,65,4.7,IR,1592611537
474,Langham,52.37,-106.97,54.0,62,62,17.22,CA,1592611537
475,Sai Buri,6.7,101.62,78.87,83,83,5.12,TH,1592611537
476,Simpang,-1.27,104.08,74.71,95,95,4.65,ID,1592611537
477,Auki,-8.77,160.7,85.37,67,67,3.62,SB,1592611537
478,Kysyl-Syr,63.9,122.76,74.7,47,47,6.98,RU,1592611537
479,Raja,8.46,25.68,69.44,91,91,4.16,SS,1592611537
480,Ixtapa,20.7,-105.2,84.2,70,70,12.75,MX,1592611270
481,Obo,5.4,26.49,67.62,98,98,4.29,CF,1592611538
482,Odesa,46.48,30.73,69.8,73,73,2.24,UA,1592611335
483,Staraya Poltavka,50.48,46.48,63.3,70,70,8.5,RU,1592611538
484,Klyuchi,52.27,79.17,48.67,71,71,5.86,RU,1592611538
485,Rønde,56.3,10.48,63.0,100,100,5.82,DK,1592611538
486,Atar,20.52,-13.05,96.1,19,19,11.12,MR,1592611538
488,Sembakung,3.82,117.25,79.23,84,84,1.88,ID,1592611538
489,Jalu,29.03,21.55,80.58,24,24,8.46,LY,1592611539
490,Tarko-Sale,64.92,77.78,45.0,71,71,10.02,RU,1592611539
491,Nau,40.15,69.37,69.8,37,37,11.18,TJ,1592611539
492,Husavik,66.04,-17.34,46.4,93,93,12.75,IS,1592611539
493,Buala,-8.14,159.59,84.85,71,71,5.88,SB,1592611539
495,Zhanakorgan,43.91,67.25,71.08,35,35,14.79,KZ,1592611539
496,Gogrial,8.53,28.1,74.05,81,81,3.49,SS,1592611539
497,Wuzhou,23.48,111.32,80.15,86,86,2.48,CN,1592611540
498,Parrita,9.52,-84.32,71.6,88,88,6.93,CR,1592611246
499,Murray Bridge,-35.12,139.27,54.0,94,94,13.96,AU,1592611540
500,Delījān,33.99,50.68,78.6,15,15,0.85,IR,1592611540
502,Kalcheva,45.74,28.81,68.77,77,77,6.2,UA,1592611540
503,Huarmey,-10.07,-78.15,63.48,84,84,10.69,PE,1592611540
504,Sunndalsøra,62.68,8.55,69.8,52,52,12.75,NO,1592611540
505,Santa Cruz de la Sierra,-17.8,-63.17,78.8,74,74,16.11,BO,1592611475
506,Acaraú,-2.89,-40.12,77.77,85,85,12.73,BR,1592611541
507,Bolshaya Rechka,51.95,104.74,59.0,100,100,4.47,RU,1592611541
508,Areia Branca,-4.96,-37.14,77.56,83,83,14.32,BR,1592611541
509,Paranavaí,-23.07,-52.47,67.73,79,79,6.87,BR,1592611541
510,Morgan City,29.7,-91.21,84.2,66,66,6.93,US,1592611541
511,Gigmoto,13.78,124.39,84.02,76,76,9.46,PH,1592611541
512,Gadwāl,16.23,77.8,80.87,67,67,11.23,IN,1592611541
513,Takoradze,4.88,-1.76,76.53,86,86,7.27,GH,1592611541
514,Loviisa,60.46,26.23,61.0,87,87,11.54,FI,1592611542
515,Cherskiy,68.75,161.3,80.65,27,27,5.86,RU,1592611542
516,Garissa,-0.45,39.64,74.7,66,66,15.86,KE,1592611542
517,Hervey Bay,-25.3,152.85,64.0,92,92,7.0,AU,1592611542
518,Sharjah city,25.36,55.4,91.4,79,79,4.7,AE,1592611542
519,Makat,47.65,53.35,79.05,37,37,20.33,KZ,1592611542
520,Tuatapere,-46.13,167.68,49.21,72,72,2.55,NZ,1592611542
521,Malmesbury,-33.46,18.73,62.01,87,87,6.93,ZA,1592611542
522,San Lucas,16.6,-92.72,82.4,69,69,11.41,MX,1592611543
523,Lamu,-2.27,40.9,77.72,80,80,17.05,KE,1592611543
524,Terney,45.05,136.61,56.14,73,73,4.63,RU,1592611543
526,Kenai,60.55,-151.26,54.0,76,76,11.41,US,1592611543
528,Lakes Entrance,-37.88,147.98,50.0,87,87,7.47,AU,1592611543
529,Ovalle,-30.6,-71.2,59.14,59,59,0.6,CL,1592611543
530,Olinda,-8.01,-34.86,80.6,74,74,11.41,BR,1592611543
531,Dhidhdhoo,6.88,73.1,83.59,79,79,11.12,MV,1592611500
532,Ko Samui,9.54,99.94,82.4,78,78,12.24,TH,1592611544
533,Bellavista,-7.06,-76.59,76.5,70,70,0.87,PE,1592611544
534,Shiraz,29.6,52.54,66.99,32,32,1.28,IR,1592611544
535,Bilhaur,26.85,80.08,83.79,72,72,8.21,IN,1592611544
536,Souris,49.62,-100.26,68.0,32,32,19.46,CA,1592611544
537,Viradouro,-20.87,-48.3,68.0,68,68,2.3,BR,1592611544
538,Katobu,-4.94,122.53,77.41,89,89,5.93,ID,1592611544
539,Hay River,60.82,-115.8,84.2,35,35,11.41,CA,1592611544
541,Giohar,2.78,45.5,73.87,85,85,14.09,SO,1592611545
542,Port-Gentil,-0.72,8.78,75.2,94,94,6.93,GA,1592611545
543,Korla,41.76,86.15,70.45,25,25,12.68,CN,1592611545
544,Junín,-34.58,-60.94,52.93,70,70,5.12,AR,1592611545
545,Benghazi,32.12,20.07,81.7,31,31,8.37,LY,1592611545
546,Kuril'sk,45.23,147.88,50.72,93,93,0.96,RU,1592611545
547,Knyaze-Volkonskoye,48.46,135.46,60.8,63,63,6.71,RU,1592611545
548,Fare,-16.7,-151.02,80.8,76,76,4.23,PF,1592611546
549,Anadyr,64.75,177.48,51.93,70,70,5.12,RU,1592611264
550,Ayotzintepec,17.67,-96.13,81.61,81,81,2.3,MX,1592611546
551,Yatou,37.15,122.38,76.5,64,64,11.27,CN,1592611546
552,Vanavara,60.34,102.28,64.67,54,54,6.35,RU,1592611546
553,Marzuq,14.4,46.47,83.25,27,27,2.55,YE,1592611546
554,Mareeba,-17.0,145.43,75.2,69,69,12.75,AU,1592611546
555,Gariadhar,21.53,71.58,83.39,75,75,8.9,IN,1592611546
556,Tabas,33.6,56.92,89.6,13,13,4.7,IR,1592611547
558,Beringovskiy,63.05,179.32,50.25,49,49,4.97,RU,1592611547
559,Aleksandrov Gay,50.15,48.57,64.62,65,65,8.28,RU,1592611547
560,Taiobeiras,-15.81,-42.23,62.89,98,98,5.12,BR,1592611547
561,Tongliao,43.61,122.27,79.88,50,50,11.12,CN,1592611547
562,Cairns,-16.92,145.77,75.2,69,69,12.75,AU,1592611428
563,Suntar,62.14,117.63,70.88,51,51,3.13,RU,1592611547
564,Yola,9.2,12.48,73.42,92,92,4.65,NG,1592611547
565,Wynyard,-41.0,145.72,51.01,91,91,4.0,AU,1592611548
566,Fairview,40.81,-74.0,77.0,69,69,11.65,US,1592611435
568,Itoman,26.12,127.67,86.0,83,83,16.11,JP,1592611548
569,Verāval,20.9,70.37,85.05,79,79,14.76,IN,1592611548
570,Sarkand,45.41,79.92,62.89,30,30,6.4,KZ,1592611548
571,Xining,36.62,101.77,63.82,49,49,2.64,CN,1592611548
572,Santa Cruz del Sur,20.71,-78.0,82.78,75,75,5.5,CU,1592611548
573,Ducheng,23.24,111.53,80.92,84,84,2.73,CN,1592611549
574,Griffith,41.53,-87.42,91.0,35,35,5.82,US,1592611549
575,Nioro,13.35,-15.75,82.9,71,71,10.83,GM,1592611549
576,Luganville,-15.53,167.17,80.6,74,74,6.93,VU,1592611549
577,Yangi Marg`ilon,40.43,71.72,68.0,45,45,4.7,UZ,1592611549
578,Domoni,-12.26,44.53,73.29,87,87,17.58,KM,1592611549
579,Merauke,-8.47,140.33,80.73,76,76,16.71,ID,1592611549
580,Sola,-13.88,167.55,79.75,78,78,18.01,VU,1592611549
581,Waldoboro,44.1,-69.38,75.99,69,69,10.29,US,1592611549
582,Benin,9.5,2.25,71.82,93,93,2.15,BJ,1592611550
583,Pedasí,7.53,-80.03,80.67,81,81,6.64,PA,1592611550
584,Palmeiras de Goiás,-16.8,-49.93,65.82,53,53,2.39,BR,1592611550
587,Hualmay,-11.1,-77.61,62.44,85,85,11.86,PE,1592611550
