,City,Lat,Lng,Max Temp,Humidity,Cloudiness,Wind Speed,Country,Date
0,Saint-François,46.42,3.91,73.99,53,53,12.75,FR,1592758802
1,Saint George,37.1,-113.58,90.0,15,15,3.42,US,1592758809
3,Hobart,-42.88,147.33,55.4,93,93,10.29,AU,1592758754
4,East London,-33.02,27.91,66.76,62,62,17.43,ZA,1592758877
5,Hilo,19.73,-155.09,69.01,68,68,8.05,US,1592758877
6,Bredasdorp,-34.53,20.04,59.0,93,93,2.82,ZA,1592758696
7,Karoi,-16.81,29.69,55.62,73,73,1.54,ZW,1592758877
8,Hithadhoo,-0.6,73.08,84.18,70,70,5.17,MV,1592758877
9,Santa Rosa,14.31,121.11,82.4,83,83,2.24,PH,1592758877
10,Severo-Kuril'sk,50.68,156.12,43.56,80,80,8.03,RU,1592758790
11,Albany,42.6,-73.97,89.01,48,48,3.96,US,1592758878
12,Santa Rosalía,27.32,-112.28,88.88,19,19,5.93,MX,1592758878
13,Adrar,20.5,-10.07,110.32,8,8,17.6,MR,1592758708
14,Tiquicheo,18.88,-100.73,93.13,43,43,2.39,MX,1592758878
15,Nikolskoye,59.7,30.79,66.2,45,45,8.95,RU,1592758879
16,Punta Arenas,-53.15,-70.92,39.2,86,86,12.75,CL,1592758879
17,Saint Paul Harbor,57.79,-152.41,50.0,87,87,11.41,US,1592758879
18,Gryazovets,58.88,40.25,57.04,72,72,3.8,RU,1592758879
19,Buala,-8.14,159.59,80.26,79,79,4.94,SB,1592758879
20,Lensk,60.73,114.93,58.42,81,81,1.88,RU,1592758879
21,Coruripe,-10.13,-36.18,79.79,67,67,13.58,BR,1592758879
22,Goya,-29.14,-59.26,78.69,60,60,3.29,AR,1592758880
23,Castro,-24.79,-50.01,73.24,53,53,10.0,BR,1592758814
24,Norman Wells,65.28,-126.83,55.4,100,100,6.93,CA,1592758880
25,Iqaluit,63.75,-68.51,42.8,70,70,8.05,CA,1592758866
26,Kapaa,22.08,-159.32,75.2,83,83,11.41,US,1592758880
27,Beringovskiy,63.05,179.32,47.43,54,54,3.58,RU,1592758810
28,Kiunga,-6.12,141.29,72.19,98,98,1.3,PG,1592758880
29,Puerto Ayora,-0.74,-90.35,75.2,73,73,17.22,EC,1592758881
30,Yellowknife,62.46,-114.35,73.0,52,52,17.22,CA,1592758832
31,Butaritari,3.07,172.79,83.59,76,76,16.96,KI,1592758881
34,Malmesbury,-33.46,18.73,59.0,93,93,8.05,ZA,1592758881
35,Tuktoyaktuk,69.45,-133.04,37.4,93,93,8.05,CA,1592758881
36,Sibolga,1.74,98.78,75.47,87,87,4.9,ID,1592758882
37,Coxim,-18.51,-54.76,89.87,31,31,10.76,BR,1592758882
38,Vila Velha,-20.33,-40.29,82.4,58,58,10.29,BR,1592758636
39,Cape Town,-33.93,18.42,60.01,93,93,8.05,ZA,1592758685
40,Vaini,-21.2,-175.2,75.2,100,100,6.93,TO,1592758882
41,Atuona,-9.8,-139.03,79.99,63,63,9.91,PF,1592758882
42,Faanui,-16.48,-151.75,78.04,82,82,24.76,PF,1592758771
43,Whitehorse,60.72,-135.05,50.0,57,57,10.29,CA,1592758882
44,Ushuaia,-54.8,-68.3,37.4,80,80,3.36,AR,1592758723
46,Biak,-0.91,122.88,77.14,82,82,7.4,ID,1592758883
47,Port Elizabeth,-33.92,25.57,60.8,77,77,11.41,ZA,1592758883
48,Esperance,-33.87,121.9,44.6,81,81,13.87,AU,1592758883
49,Harper,4.38,-7.72,77.52,86,86,14.67,LR,1592758883
50,Haslett,42.75,-84.4,78.8,65,65,9.17,US,1592758736
51,Kalmeshwar,21.23,78.9,82.4,65,65,3.36,IN,1592758586
52,Quime,-16.98,-67.22,65.43,27,27,3.36,BO,1592758884
53,Cabo San Lucas,22.89,-109.91,84.99,58,58,5.82,MX,1592758802
54,Rikitea,-23.12,-134.97,71.67,70,70,16.75,PF,1592758884
55,Bluff,-46.6,168.33,39.0,83,83,3.0,NZ,1592758884
56,Zunyi,27.69,106.91,73.6,93,93,2.39,CN,1592758884
57,New Norfolk,-42.78,147.06,54.0,93,93,1.01,AU,1592758734
58,Airai,-8.93,125.41,57.45,100,100,4.03,TL,1592758884
59,Katsuura,35.13,140.3,70.0,89,89,1.01,JP,1592758885
60,Busselton,-33.65,115.33,55.99,54,54,16.13,AU,1592758655
61,Jalu,29.03,21.55,91.72,21,21,21.41,LY,1592758885
62,Maceió,-9.67,-35.74,82.4,58,58,14.99,BR,1592758652
63,Phang Nga,8.45,98.53,78.8,94,94,2.24,TH,1592759002
64,Emilio Carranza,19.97,-96.61,86.41,59,59,6.78,MX,1592758885
65,Manaure,11.78,-72.44,90.61,53,53,24.52,CO,1592758885
66,Ribeira Grande,38.52,-28.7,69.8,83,83,11.41,PT,1592758885
67,Saint-Augustin,51.23,-58.65,66.07,52,52,20.11,CA,1592758886
68,Bethel,41.37,-73.41,84.0,54,54,3.96,US,1592758664
69,Saint-Joseph,-21.37,55.62,68.0,82,82,6.93,RE,1592758886
71,Ballina,-28.87,153.57,55.4,93,93,6.93,AU,1592758886
72,Touros,-5.2,-35.46,84.2,62,62,13.87,BR,1592758886
73,Mar del Plata,-38.0,-57.56,60.01,72,72,11.41,AR,1592758824
74,Ukwā,21.97,80.47,76.05,87,87,2.44,IN,1592758887
75,Nerchinskiy Zavod,51.31,119.61,48.7,84,84,3.06,RU,1592758887
76,Ogbomosho,8.13,4.25,80.06,82,82,7.02,NG,1592758887
77,Honningsvåg,70.98,25.97,46.4,81,81,4.7,NO,1592758887
78,Nador,35.17,-2.93,86.0,42,42,5.82,MA,1592758620
80,Peruíbe,-24.32,-47.0,86.05,47,47,1.3,BR,1592758807
81,Chiredzi,-21.05,31.67,64.04,38,38,1.81,ZW,1592758887
82,Grand Bank,47.1,-55.77,51.8,81,81,10.29,CA,1592758888
83,Souillac,-20.52,57.52,69.8,88,88,11.41,MU,1592758718
84,Lagos,6.58,3.75,82.4,83,83,9.17,NG,1592758857
85,Nichinan,31.6,131.37,70.14,89,89,7.92,JP,1592758888
86,Tasiilaq,65.61,-37.64,46.4,75,75,5.82,GL,1592758888
87,Arraial do Cabo,-22.97,-42.03,84.2,69,69,8.05,BR,1592758736
88,Provideniya,64.38,-173.3,54.07,51,51,2.93,RU,1592758889
89,Zharkent,44.16,80.0,66.69,26,26,5.66,KZ,1592758889
90,Port Alfred,-33.59,26.89,63.0,77,77,7.0,ZA,1592758889
91,Clyde River,70.47,-68.59,44.6,87,87,6.93,CA,1592758889
92,Superior,46.72,-92.1,75.99,60,60,9.17,US,1592758889
94,Lujiang,31.26,117.28,71.6,100,100,8.95,CN,1592758889
95,Mount Gambier,-37.83,140.77,44.6,100,100,10.29,AU,1592758890
96,Punta Cardon,11.66,-70.22,86.36,63,63,29.06,VE,1592758890
97,Mataura,-46.19,168.86,39.0,83,83,3.0,NZ,1592758890
98,Khani,41.96,42.96,75.2,60,60,10.29,GE,1592758890
99,Avera,33.19,-82.53,91.4,43,43,6.93,US,1592758890
100,Grande Prairie,55.17,-118.8,64.4,55,55,17.22,CA,1592758869
101,Port Shepstone,-30.74,30.45,67.75,71,71,11.79,ZA,1592758890
102,Hermanus,-34.42,19.23,57.99,90,90,4.43,ZA,1592758890
103,Victor Harbor,-35.57,138.62,52.0,95,95,11.25,AU,1592758890
104,Orange Cove,36.62,-119.31,84.0,50,50,3.13,US,1592758891
106,Thompson,55.74,-97.86,51.8,93,93,8.05,CA,1592758643
107,Avarua,-21.21,-159.78,71.6,68,68,9.17,CK,1592758673
108,Pisz,53.63,21.81,69.8,88,88,8.05,PL,1592758750
110,Upernavik,72.79,-56.15,41.0,73,73,6.06,GL,1592758891
112,Constitución,-35.33,-72.42,56.12,77,77,4.5,CL,1592758892
113,Trairi,-3.28,-39.27,85.3,56,56,12.88,BR,1592758892
114,Kruisfontein,-34.0,24.73,55.99,83,83,8.48,ZA,1592758892
115,Manono,-7.3,27.42,76.75,34,34,4.85,CD,1592758710
117,Naze,28.37,129.48,75.2,94,94,8.05,JP,1592758892
119,Raudeberg,61.99,5.14,59.0,94,94,6.82,NO,1592759029
120,Opuwo,-18.06,13.84,63.54,29,29,9.89,NA,1592758892
121,Tateyama,34.98,139.87,72.0,98,98,1.99,JP,1592758893
122,Qui Nhon,13.77,109.23,80.69,84,84,6.44,VN,1592758893
123,Cabra,37.47,-4.44,99.0,16,16,1.01,ES,1592758893
124,Anshun,26.25,105.93,70.36,92,92,10.02,CN,1592758893
125,Torbay,47.67,-52.73,60.01,54,54,11.41,CA,1592758893
126,Dawei,14.08,98.2,79.61,85,85,1.72,MM,1592758893
127,Khomeyn,33.64,50.08,68.41,23,23,11.48,IR,1592758893
128,Bathsheba,13.22,-59.52,87.8,66,66,23.04,BB,1592758893
129,Basco,20.45,121.97,85.12,76,76,12.12,PH,1592758894
130,Tisul',55.76,88.31,47.75,74,74,4.16,RU,1592758894
131,Lompoc,34.64,-120.46,59.0,93,93,4.41,US,1592758656
132,Bambous Virieux,-20.34,57.76,72.0,88,88,11.41,MU,1592758894
133,Pimenteiras,-6.25,-41.42,86.83,46,46,9.71,BR,1592758894
134,Jevargi,17.02,76.77,79.03,75,75,17.58,IN,1592758894
135,Dikson,73.51,80.55,41.29,79,79,10.83,RU,1592758894
136,Fort Nelson,58.81,-122.7,64.4,68,68,8.05,CA,1592758800
137,Wanning,18.8,110.4,82.89,88,88,11.61,CN,1592758895
139,Progreso,21.28,-89.67,91.0,70,70,12.75,MX,1592758895
140,Tuatapere,-46.13,167.68,39.0,83,83,3.0,NZ,1592758895
141,Saskylakh,71.92,114.08,55.45,61,61,10.36,RU,1592758895
142,Pukë,42.04,19.9,78.8,39,39,9.17,AL,1592758895
143,Cangzhou,38.32,116.87,81.48,42,42,12.77,CN,1592758895
144,Qaanaaq,77.48,-69.36,39.43,73,73,3.09,GL,1592758896
145,Saldanha,-33.01,17.94,57.2,93,93,8.05,ZA,1592758896
146,Carnarvon,-24.87,113.63,59.0,93,93,10.29,AU,1592758896
147,Ishigaki,24.34,124.16,84.24,85,85,15.1,JP,1592758896
148,Madaba Governorate,31.58,35.67,84.2,32,32,12.75,JO,1592758896
149,Chokurdakh,70.63,147.92,72.01,42,42,5.35,RU,1592758896
150,George Town,5.41,100.34,82.4,94,94,4.7,MY,1592758797
151,Żnin,52.85,17.72,69.8,88,88,11.41,PL,1592758897
152,Balabac,7.99,117.06,82.81,77,77,3.76,PH,1592758897
153,Palmer,42.16,-72.33,91.0,35,35,6.93,US,1592758897
154,Senador José Porfírio,-2.59,-51.95,87.96,56,56,4.72,BR,1592758897
155,Javānrūd,34.8,46.52,65.52,39,39,9.53,IR,1592758897
156,Isangel,-19.55,169.27,70.79,80,80,13.62,VU,1592758897
158,Doha,25.29,51.53,96.8,23,23,10.29,QA,1592758794
159,Te Anau,-45.42,167.72,36.16,84,84,0.96,NZ,1592758898
160,Bahir Dar,11.59,37.39,66.04,82,82,9.22,ET,1592758865
162,Tegul'det,57.31,88.17,49.1,75,75,2.66,RU,1592758898
164,Micheweni,-4.97,39.83,78.94,70,70,17.11,TZ,1592758898
165,Cherskiy,68.75,161.3,73.36,42,42,3.85,RU,1592758898
166,Aldan,58.6,125.39,50.58,72,72,2.73,RU,1592758899
167,Port Lincoln,-34.73,135.87,55.72,77,77,13.38,AU,1592758689
168,Shirvan,39.95,48.9,86.74,22,22,5.99,AZ,1592758899
169,Jamestown,42.1,-79.24,80.6,54,54,9.17,US,1592758899
170,Vaitape,-16.52,-151.75,78.89,80,80,24.76,PF,1592758899
171,Baoqing,46.33,132.21,59.05,96,96,2.75,CN,1592758899
172,Borogontsy,62.67,131.17,53.1,66,66,4.38,RU,1592758899
173,Ponta do Sol,32.67,-17.1,73.4,64,64,18.34,PT,1592758900
174,Shurugwi,-19.67,30.01,52.74,44,44,3.51,ZW,1592758900
175,La Ronge,55.1,-105.28,57.2,62,62,5.82,CA,1592758900
176,Derzhavīnsk,51.1,66.32,69.69,29,29,11.86,KZ,1592758900
177,Dobryanka,58.46,56.42,48.2,76,76,6.71,RU,1592758900
178,Beloha,-25.17,45.05,69.55,73,73,4.36,MG,1592758900
179,Salinópolis,-0.61,-47.36,84.0,71,71,13.69,BR,1592758900
180,Rome,43.21,-75.46,86.0,51,51,3.36,US,1592758901
181,Boyolangu,-8.12,111.89,75.96,88,88,5.3,ID,1592758901
182,Bhindār,24.5,74.18,87.4,51,51,13.42,IN,1592758901
183,Cidreira,-30.18,-50.21,78.44,52,52,14.56,BR,1592758660
184,Talnakh,69.49,88.4,51.8,62,62,6.71,RU,1592758803
185,Lebu,-37.62,-73.65,52.07,78,78,7.02,CL,1592758686
186,Roald,62.58,6.13,61.0,100,100,10.29,NO,1592758866
187,Pisco,-13.7,-76.22,64.4,82,82,5.82,PE,1592758901
188,Masuguru,-11.37,38.42,73.83,41,41,2.39,TZ,1592758902
189,Rafaela,-31.25,-61.49,69.01,38,38,8.99,AR,1592758902
190,Ararat,39.83,44.7,75.2,31,31,2.24,AM,1592758902
191,Ambikāpur,23.12,83.2,79.54,80,80,3.67,IN,1592758902
192,Nanortalik,60.14,-45.24,44.73,71,71,12.53,GL,1592758663
193,Poum,-20.23,164.02,71.26,73,73,10.49,NC,1592758902
194,Hurghada,27.26,33.81,95.0,17,17,5.84,EG,1592758805
195,Lagoa,39.05,-27.98,66.02,89,89,17.49,PT,1592758903
196,Ilulissat,69.22,-51.1,39.2,80,80,5.82,GL,1592758728
197,Hong Kong,22.29,114.16,86.0,74,74,13.0,HK,1592758807
198,Trollhättan Municipality,58.23,12.42,68.0,88,88,4.85,SE,1592758903
199,Khatanga,71.97,102.5,65.28,55,55,13.15,RU,1592758903
200,San Cristobal,7.77,-72.22,91.4,43,43,10.29,VE,1592758784
201,Yablonovo,50.85,37.36,80.6,51,51,11.18,RU,1592758903
202,Salalah,17.02,54.09,84.2,89,89,10.29,OM,1592758903
203,Socorro,31.65,-106.3,91.4,15,15,13.87,US,1592758904
204,Tomatlán,19.93,-105.25,91.27,48,48,4.18,MX,1592758904
205,Narsaq,60.92,-46.05,60.8,41,41,5.82,GL,1592758686
206,Bend,44.06,-121.32,66.99,55,55,4.7,US,1592758904
207,Umm Kaddadah,13.6,26.69,97.99,9,9,2.75,SD,1592758904
208,Gushikawa,26.35,127.87,82.4,94,94,13.87,JP,1592758904
209,Safi,32.3,-9.24,74.84,62,62,25.41,MA,1592758904
210,Portland,45.52,-122.68,64.99,72,72,2.33,US,1592758313
211,Marzuq,14.4,46.47,90.01,30,30,3.33,YE,1592758905
212,Puerto Peñasco,31.32,-113.53,84.99,49,49,4.0,MX,1592758905
213,Seoul,37.57,126.98,73.4,94,94,1.12,KR,1592758905
215,Takoradze,4.88,-1.76,77.54,86,86,10.94,GH,1592758905
216,Nālūt,30.33,10.85,89.06,15,15,17.0,LY,1592758905
217,Havøysund,71.0,24.66,60.8,81,81,4.7,NO,1592758905
218,Rio de Janeiro,-22.9,-43.21,91.4,58,58,4.7,BR,1592758626
219,Oktyabr'skiy,54.48,53.47,51.67,78,78,7.76,RU,1592758906
220,Sorong,-0.88,131.25,79.52,83,83,8.39,ID,1592758906
222,Port Keats,-14.25,129.55,74.07,47,47,12.33,AU,1592758906
223,Grindavik,63.84,-22.43,66.2,48,48,25.28,IS,1592758906
224,Aklavik,68.22,-135.01,44.6,81,81,5.82,CA,1592758784
225,Ikom,5.97,8.71,73.9,97,97,4.09,NG,1592758906
226,Mabaruma,8.2,-59.78,81.55,88,88,6.87,GY,1592758906
227,Kaitangata,-46.28,169.85,34.0,89,89,4.09,NZ,1592758907
228,Port Augusta,-32.5,137.77,51.8,87,87,6.93,AU,1592758907
229,Necochea,-38.55,-58.74,55.0,81,81,8.01,AR,1592758907
230,College,64.86,-147.8,54.0,93,93,6.93,US,1592758907
231,Shingū,33.73,135.98,67.35,94,94,23.76,JP,1592758907
232,Blagoyevo,63.37,47.92,52.25,59,59,7.09,RU,1592758907
233,Ambam,2.38,11.28,73.06,94,94,3.4,CM,1592758907
234,Alofi,-19.06,-169.92,75.2,88,88,10.29,NU,1592758907
235,Dawlatabad,36.41,64.91,92.34,10,10,10.45,AF,1592758908
236,Port Hardy,50.7,-127.42,55.4,82,82,4.7,CA,1592758816
237,Zvishavane,-20.33,30.07,57.9,43,43,4.52,ZW,1592758908
238,Ambilobe,-13.2,49.05,76.51,76,76,4.74,MG,1592758908
239,Tura,25.52,90.22,75.94,96,96,7.52,IN,1592758750
240,Saint-Pierre,-21.34,55.48,68.0,82,82,6.93,RE,1592758804
241,Kalakamati,-20.59,27.31,62.6,39,39,4.7,BW,1592758908
242,Nelson Bay,-32.72,152.15,50.0,76,76,10.29,AU,1592758909
243,Van Buren,35.44,-94.35,82.99,78,78,3.87,US,1592758909
244,Pevek,69.7,170.31,42.49,75,75,0.63,RU,1592758909
245,Mount Isa,-20.73,139.5,57.2,35,35,16.11,AU,1592758909
246,Chicama,-7.84,-79.15,72.84,59,59,8.55,PE,1592758909
247,Paamiut,61.99,-49.67,41.54,83,83,12.86,GL,1592758909
248,Tessalit,20.2,1.01,110.14,6,6,15.14,ML,1592758909
249,Qaqortoq,60.72,-46.03,60.8,41,41,5.82,GL,1592758910
250,Whitianga,-36.83,175.7,58.96,73,73,20.07,NZ,1592758824
251,Boa Vista,2.82,-60.67,77.0,83,83,3.36,BR,1592758904
252,Sur,22.57,59.53,86.85,70,70,13.47,OM,1592758655
253,Nuquí,5.71,-77.27,84.2,74,74,7.18,CO,1592758910
254,Lata,40.16,-8.33,78.01,59,59,5.99,PT,1592758910
255,Narón,43.52,-8.15,68.0,72,72,8.05,ES,1592758910
256,Pochutla,15.74,-96.47,91.0,52,52,5.32,MX,1592758910
257,Adrasmon,40.65,69.99,77.0,31,31,2.24,TJ,1592758911
258,Puerto Limón,10.0,-83.03,86.0,70,70,5.82,CR,1592758911
259,Dongfeng,42.64,125.51,66.83,82,82,6.69,CN,1592758911
260,San Patricio,19.22,-104.7,84.2,74,74,5.82,MX,1592758911
261,Sola,-13.88,167.55,80.38,84,84,16.75,VU,1592758726
262,Carácuaro,19.01,-101.13,91.63,45,45,1.74,MX,1592758911
263,Hillsboro,45.52,-122.99,66.0,77,77,0.51,US,1592758868
264,Lyubinskiy,55.15,72.69,60.8,72,72,4.47,RU,1592758911
265,Saint-Philippe,-21.36,55.77,69.8,82,82,6.93,RE,1592758912
266,Nago,26.59,127.98,82.4,94,94,13.87,JP,1592758912
267,Panguna,-6.32,155.48,67.84,98,98,1.1,PG,1592758912
268,Klaksvík,62.23,-6.59,51.8,100,100,17.22,FO,1592758912
269,Kiryat Gat,31.61,34.76,84.99,52,52,1.99,IL,1592758807
272,Kuusamo,65.97,29.18,71.6,30,30,5.82,FI,1592758913
273,Bowen,-20.02,148.23,68.0,88,88,2.24,AU,1592758913
274,Saint Paul,44.94,-93.09,82.0,61,61,10.29,US,1592758731
275,Kieta,-6.22,155.63,78.55,78,78,3.65,PG,1592758749
276,Kampot,10.62,104.18,80.6,88,88,1.12,KH,1592758913
277,Vardø,70.37,31.11,44.6,87,87,18.34,NO,1592758910
278,Port Macquarie,-31.43,152.92,44.01,98,98,6.98,AU,1592758913
279,Coos Bay,43.37,-124.22,64.0,87,87,9.17,US,1592758682
280,Shellbrook,53.22,-106.4,55.4,58,58,5.82,CA,1592758839
281,Whitley Bay,55.04,-1.45,66.99,55,55,18.34,GB,1592758914
282,Nabire,-3.37,135.48,75.63,87,87,3.69,ID,1592758914
283,Lakkoma,40.38,23.05,78.8,47,47,11.41,GR,1592758914
284,Ghātsīla,22.6,86.48,82.08,83,83,7.27,IN,1592758914
286,Tsaitien,30.58,114.03,71.6,94,94,6.71,CN,1592758914
287,Otane,-39.88,176.63,50.0,96,96,2.24,NZ,1592758915
288,Beroroha,-21.67,45.17,66.2,86,86,1.41,MG,1592758915
289,Celestún,20.87,-90.4,88.05,56,56,3.13,MX,1592758915
290,Tiznit Province,29.58,-9.5,81.81,42,42,7.58,MA,1592758915
291,Impfondo,1.64,18.07,81.21,55,55,2.24,CG,1592758915
292,São João da Barra,-21.64,-41.05,86.0,51,51,4.7,BR,1592758788
293,Abu Samrah,35.3,37.18,81.05,31,31,11.56,SY,1592758915
294,Pangnirtung,66.15,-65.71,48.2,70,70,10.29,CA,1592758915
295,Tiksi,71.69,128.87,49.95,63,63,8.86,RU,1592758915
296,Bozhou,33.88,115.77,72.99,82,82,4.54,CN,1592758916
297,Beruwala,6.48,79.98,82.09,82,82,13.94,LK,1592758916
298,Chui,-33.7,-53.46,61.27,94,94,5.41,UY,1592758740
299,Taltal,-25.4,-70.48,67.08,53,53,5.44,CL,1592758780
300,Formiga,-20.46,-45.43,75.16,53,53,6.33,BR,1592758916
301,San Francisco,37.77,-122.42,68.0,72,72,14.99,US,1592758690
303,Barabinsk,55.36,78.36,54.77,66,66,15.03,RU,1592758916
304,Dubbo,-32.25,148.62,46.4,93,93,11.41,AU,1592758917
305,Mountain Home,43.13,-115.69,73.4,43,43,18.34,US,1592758917
306,Maniitsoq,65.42,-52.9,48.16,60,60,8.99,GL,1592758917
307,Geraldton,-28.77,114.6,68.0,37,37,14.99,AU,1592758917
308,Caucayá,-0.19,-74.78,72.9,98,98,2.62,CO,1592758917
309,San Ramon,37.78,-121.98,77.0,68,68,3.36,US,1592758917
310,Mayo,38.89,-76.51,82.0,88,88,9.17,US,1592758917
311,Yumen,40.28,97.2,63.63,45,45,5.95,CN,1592758918
312,Chu,43.6,73.76,67.68,24,24,7.76,KZ,1592758918
313,Ipil,7.75,122.52,76.08,88,88,1.05,PH,1592758918
314,Alice Springs,-23.7,133.88,39.2,55,55,4.7,AU,1592758680
315,Kiama,-34.68,150.87,48.99,74,74,1.01,AU,1592758918
316,Lovozero,68.0,35.01,66.99,37,37,10.87,RU,1592758918
317,Byron Bay,-28.65,153.62,55.4,93,93,6.93,AU,1592758724
318,Tambun,-6.26,107.07,82.99,78,78,2.24,ID,1592758918
319,Colac,-38.33,143.58,44.01,99,99,5.35,AU,1592758919
320,Marsabit,2.33,37.99,74.71,53,53,4.41,KE,1592758919
321,Beihai,21.48,109.1,85.82,80,80,13.11,CN,1592758919
322,Qinzhou,21.95,108.62,83.57,85,85,9.1,CN,1592758919
323,Fare,-16.7,-151.02,78.13,81,81,24.85,PF,1592758919
324,Pacific Grove,36.62,-121.92,69.01,82,82,5.82,US,1592758919
325,Bilma,18.69,12.92,102.16,8,8,4.12,NE,1592758919
326,Ojinaga,29.57,-104.42,91.4,26,26,6.93,MX,1592758919
327,Muisne,0.6,-80.03,82.4,88,88,5.82,EC,1592758920
328,Barrow,71.29,-156.79,39.2,93,93,13.87,US,1592758631
329,Coahuayana Viejo,18.73,-103.68,77.0,73,73,11.41,MX,1592758920
330,Bayir,37.27,28.22,82.4,39,39,10.29,TR,1592758920
331,Mitsamiouli,-11.38,43.28,78.42,80,80,19.1,KM,1592758920
332,Salinas,36.68,-121.66,69.01,77,77,4.76,US,1592758920
333,Ozinki,51.18,49.68,65.44,61,61,14.81,RU,1592758920
334,Merauke,-8.47,140.33,76.37,87,87,13.53,ID,1592758921
335,Tarbagatay,51.48,107.36,60.8,77,77,6.71,RU,1592758921
336,Lavrentiya,65.58,-171.0,51.53,49,49,2.86,RU,1592758921
337,Marsá Maţrūḩ,31.35,27.25,75.2,73,73,13.87,EG,1592758921
338,Los Llanos de Aridane,28.66,-17.92,77.0,61,61,6.93,ES,1592758899
339,Broken Hill,-31.95,141.43,46.4,81,81,10.29,AU,1592758921
340,Kantang,7.41,99.52,79.27,83,83,0.89,TH,1592758921
341,Padang,-0.95,100.35,77.97,82,82,4.32,ID,1592758922
342,Kavieng,-2.57,150.8,82.67,72,72,3.06,PG,1592758922
343,Uyuni,-20.46,-66.83,53.91,31,31,5.26,BO,1592758922
344,Isla Mujeres,21.23,-86.73,86.0,70,70,12.75,MX,1592758922
345,Nouadhibou,20.93,-17.03,80.6,54,54,18.34,MR,1592758922
346,Chara,56.91,118.26,52.41,67,67,4.0,RU,1592758922
347,Tiarei,-17.53,-149.33,75.2,83,83,24.52,PF,1592758667
348,Sīwah,29.2,25.52,99.05,14,14,11.52,EG,1592758922
349,Caxito,-8.58,13.66,75.2,78,78,10.29,AO,1592758923
350,Sitka,57.05,-135.33,50.0,81,81,5.82,US,1592758923
351,Bay Roberts,47.6,-53.26,60.01,60,60,3.0,CA,1592758923
353,Ngunguru,-35.62,174.5,55.99,89,89,18.99,NZ,1592758923
354,Gondanglegi,-7.75,112.01,75.07,88,88,8.77,ID,1592758923
355,Verkhniy Avzyan,53.53,57.54,49.6,77,77,5.7,RU,1592758923
356,Ossora,59.24,163.07,54.12,77,77,1.1,RU,1592758924
357,Sobolevo,54.43,31.9,66.16,88,88,9.75,RU,1592758924
358,Lázaro Cárdenas,17.96,-102.2,91.87,50,50,2.04,MX,1592758801
359,Angoche,-16.23,39.91,73.99,75,75,8.5,MZ,1592758924
360,Sørland,67.67,12.69,64.4,63,63,8.05,NO,1592758924
361,Marawi,8.0,124.29,77.0,90,90,7.0,PH,1592758924
363,Ancud,-41.87,-73.82,48.0,100,100,9.17,CL,1592758925
364,Vila Franca do Campo,37.72,-25.43,69.8,73,73,9.17,PT,1592758925
365,Codrington,-38.27,141.97,43.3,94,94,7.85,AU,1592758925
366,Hamilton,39.18,-84.53,89.01,59,59,8.46,US,1592758820
367,Belyy Yar,53.6,91.39,50.0,93,93,8.95,RU,1592758925
368,Yamada,39.47,141.95,60.21,84,84,3.53,JP,1592758925
369,Hobyo,5.35,48.53,80.28,70,70,28.36,SO,1592758925
370,Mitú,1.2,-70.17,85.03,69,69,2.17,CO,1592758925
371,Parksepa,57.91,26.98,72.0,46,46,10.29,EE,1592758926
373,Barentu,15.11,37.59,89.44,32,32,7.78,ER,1592758926
374,Shelburne,44.08,-80.2,86.0,45,45,11.41,CA,1592758864
375,San Quintín,30.48,-115.95,66.58,73,73,12.44,MX,1592758926
376,Laguna,38.42,-121.42,77.0,64,64,3.36,US,1592758926
377,Bealanana,-14.55,48.73,63.36,91,91,6.78,MG,1592758926
378,Kendari,-3.94,122.5,73.76,93,93,3.58,ID,1592758730
379,Porto-Novo,6.5,2.6,84.2,74,74,13.87,BJ,1592758766
380,Bintulu,3.17,113.03,77.0,100,100,2.24,MY,1592758927
381,Luanda,-8.84,13.23,75.2,78,78,10.29,AO,1592758927
382,Palembang,-2.92,104.75,74.34,96,96,2.93,ID,1592758927
383,Bose,45.46,8.01,84.0,37,37,6.93,IT,1592758927
384,Kolokani,13.57,-8.03,102.7,18,18,9.64,ML,1592758927
386,Stolin,51.89,26.85,72.63,87,87,7.81,BY,1592758927
387,Morón,-34.65,-58.62,64.99,72,72,11.41,AR,1592758928
388,Luau,-10.71,22.22,65.5,28,28,4.74,AO,1592758928
389,Lilongwe,-13.97,33.79,63.16,44,44,1.5,MW,1592758788
391,Staicele,57.84,24.75,73.0,58,58,4.0,LV,1592758928
392,Valea Ciorii,44.72,27.57,71.6,83,83,5.82,RO,1592758928
393,Hasaki,35.73,140.83,66.2,100,100,6.93,JP,1592758928
394,Chishtian,29.8,72.87,102.79,21,21,10.65,PK,1592758928
395,Province of Mantua,45.17,10.78,87.01,32,32,4.7,IT,1592758929
396,Viedma,-40.81,-63.0,57.4,37,37,15.05,AR,1592758798
397,Gananoque,44.33,-76.17,82.0,69,69,7.0,CA,1592758929
398,Quatre Cocos,-20.21,57.76,72.0,88,88,11.41,MU,1592758929
399,Gimli,50.63,-96.99,60.01,83,83,3.0,CA,1592758929
400,Inongo,-1.95,18.27,76.59,59,59,1.25,CD,1592758925
401,Le Port,-20.94,55.29,69.8,83,83,17.22,RE,1592758929
402,Vao,-22.67,167.48,69.03,59,59,7.34,NC,1592758930
403,Collierville,35.04,-89.66,87.01,78,78,12.75,US,1592758930
404,Thinadhoo,0.53,72.93,84.2,73,73,7.47,MV,1592758930
405,Bengkulu,-3.8,102.27,76.96,90,90,5.7,ID,1592758886
406,Jumla,29.27,82.18,60.06,66,66,3.18,NP,1592758930
407,Laas,46.62,10.7,73.0,51,51,10.29,IT,1592758930
408,Jiuquan,39.74,98.52,64.13,47,47,2.59,CN,1592758930
410,Coyhaique,-45.58,-72.07,48.2,66,66,5.82,CL,1592758814
411,Dromolaxia,34.88,33.59,78.8,61,61,17.22,CY,1592758931
412,Ouango,4.31,22.56,72.37,94,94,2.71,CF,1592758931
413,Rodrigues Alves,-7.74,-72.65,86.0,70,70,3.36,BR,1592758931
415,Yulara,-25.24,130.99,39.2,55,55,6.93,AU,1592758931
416,Kuytun,54.34,101.5,59.05,65,65,6.38,RU,1592758931
417,Ilfracombe,51.21,-4.11,63.0,83,83,11.99,GB,1592758931
418,Binga,-17.62,27.34,62.85,61,61,6.64,ZW,1592758931
419,Lüderitz,-26.65,15.16,62.6,72,72,11.41,NA,1592758932
420,Hutchinson,38.06,-97.93,86.0,51,51,16.11,US,1592758736
421,Along,28.17,94.77,74.41,88,88,0.34,IN,1592758932
422,Banff,51.18,-115.57,66.0,54,54,5.99,CA,1592758932
423,Kautokeino,69.01,23.04,73.89,27,27,11.34,NO,1592758932
424,Dunedin,-45.87,170.5,35.01,93,93,5.01,NZ,1592758668
425,Brasília,-15.78,-47.93,79.0,34,34,10.29,BR,1592758727
426,Fortuna,40.6,-124.16,61.0,100,100,8.05,US,1592758932
427,Turukhansk,65.82,87.98,51.82,64,64,9.51,RU,1592758933
429,Helena,46.59,-112.04,69.8,46,46,16.11,US,1592758933
430,Rafiganj,24.82,84.65,82.4,88,88,4.7,IN,1592758933
431,Gamba,-2.65,10.0,75.02,83,83,7.87,GA,1592758655
432,Tunceli,39.11,39.55,80.6,26,26,11.41,TR,1592758933
433,Pasvalys,56.06,24.4,71.6,78,78,6.93,LT,1592758933
434,Kulhudhuffushi,6.62,73.07,83.17,75,75,12.75,MV,1592758933
435,Ingham,42.6,-84.38,80.6,65,65,4.7,US,1592758934
436,Tommot,58.96,126.29,55.92,69,69,2.46,RU,1592758666
437,Mandalgovi,45.76,106.27,58.8,68,68,11.72,MN,1592758934
438,Baoning,25.34,110.03,80.6,94,94,2.62,CN,1592758934
440,Tabuk,17.42,121.44,76.3,85,85,3.31,PH,1592758934
441,Coronado,32.69,-117.18,68.0,72,72,6.93,US,1592758851
443,Sompeta,18.93,84.6,83.82,75,75,9.06,IN,1592758935
444,Kasongo-Lunda,-6.47,16.82,77.16,27,27,3.11,CD,1592758935
445,Galle,6.04,80.22,82.26,82,82,16.37,LK,1592758935
446,Half Moon Bay,37.46,-122.43,68.0,100,100,14.99,US,1592758935
447,Balakovo,52.03,47.8,60.84,73,73,12.12,RU,1592758935
448,Paracatu,-17.22,-46.87,78.98,32,32,6.44,BR,1592758852
449,Kloulklubed,7.04,134.26,80.6,83,83,5.82,PW,1592758836
450,La Santisima Trinidad,-14.83,-64.9,87.8,62,62,13.87,BO,1592758935
451,Mahon,39.89,4.27,77.0,69,69,10.29,ES,1592758936
452,Purpe,64.48,76.69,48.99,87,87,8.7,RU,1592758936
453,Mahébourg,-20.41,57.7,69.8,88,88,11.41,MU,1592758936
454,Waverly,42.74,-84.62,78.8,65,65,9.17,US,1592758936
455,Manicoré,-5.81,-61.3,89.6,59,59,9.17,BR,1592758715
456,Blackwater,-23.58,148.88,63.79,60,60,5.91,AU,1592758936
457,Srandakan,-7.94,110.25,76.93,87,87,7.25,ID,1592758936
458,Olinda,-8.01,-34.86,84.2,62,62,13.87,BR,1592758937
459,Hokitika,-42.72,170.97,47.14,62,62,3.51,NZ,1592758937
460,Hofn,64.25,-15.21,53.6,87,87,18.34,IS,1592758674
461,Broome,42.25,-75.83,84.0,66,66,4.0,US,1592758937
462,Port-Gentil,-0.72,8.78,78.8,83,83,13.87,GA,1592758937
463,Haines Junction,60.75,-137.51,48.63,58,58,6.6,CA,1592758812
464,Caramay,10.18,119.24,80.62,81,81,3.91,PH,1592758937
465,Ormara,25.21,64.64,85.05,82,82,14.85,PK,1592758937
466,Redlands,34.06,-117.18,75.99,72,72,4.63,US,1592758802
468,Arman',59.7,150.17,50.41,82,82,1.88,RU,1592758938
469,Gatton,-27.55,152.28,55.99,93,93,8.05,AU,1592758938
470,Illora,37.29,-3.88,96.8,13,13,4.7,ES,1592758938
471,Lorengau,-2.02,147.27,80.42,76,76,2.1,PG,1592758649
472,Jiangyou,31.77,104.72,76.82,70,70,3.27,CN,1592758938
473,Yambio,4.57,28.4,71.06,90,90,2.15,SS,1592758938
475,Hambantota,6.12,81.12,82.38,76,76,18.9,LK,1592758939
476,Taoudenni,22.68,-3.98,116.6,6,6,16.98,ML,1592758939
477,Aswān,24.09,32.91,99.41,10,10,14.83,EG,1592758803
478,Rawson,-43.3,-65.1,55.04,41,41,20.96,AR,1592758880
479,Călăraşi,47.25,28.31,75.2,69,69,6.93,MD,1592758939
480,Camapuã,-19.53,-54.04,87.35,31,31,9.95,BR,1592758939
481,Port Blair,11.67,92.75,83.19,80,80,10.69,IN,1592758939
482,Sinnamary,5.38,-52.95,84.76,64,64,11.61,GF,1592758939
483,Bandarbeyla,9.49,50.81,80.83,71,71,29.97,SO,1592758939
484,Kjøllefjord,70.95,27.35,46.4,81,81,4.7,NO,1592758940
486,Egvekinot,66.32,-179.17,56.19,44,44,2.28,RU,1592758940
487,Lianzhou,24.78,112.38,78.51,84,84,3.22,CN,1592758940
488,Okhotsk,59.38,143.3,44.94,90,90,2.46,RU,1592758821
490,Porbandar,21.64,69.61,85.69,77,77,16.87,IN,1592758660
492,Guerrero Negro,27.98,-114.06,68.67,61,61,15.08,MX,1592758829
493,Leningradskiy,69.38,178.42,44.69,73,73,6.04,RU,1592758941
494,Wanxian,30.8,108.39,72.54,83,83,3.8,CN,1592758941
495,Vidim,56.41,103.11,58.82,73,73,4.88,RU,1592758941
496,Murgab,37.5,61.97,95.0,23,23,9.17,TM,1592758941
497,Yar-Sale,66.83,70.83,49.26,78,78,10.76,RU,1592758941
498,Kathmandu,27.72,85.32,69.8,100,100,0.83,NP,1592758907
499,Los Arcos,8.63,125.99,74.23,94,94,0.2,PH,1592758941
500,Orlovo,51.75,39.59,73.4,64,64,8.95,RU,1592758941
501,Khorramshahr,30.44,48.17,98.6,20,20,9.17,IR,1592758942
502,Lakes Entrance,-37.88,147.98,45.0,93,93,9.75,AU,1592758942
503,San Vicente,-26.62,-54.13,79.09,41,41,7.74,AR,1592758942
504,Kwinana,-32.25,115.77,66.0,45,45,13.87,AU,1592758942
505,Kongoussi,13.33,-1.53,104.02,15,15,3.85,BF,1592758942
506,Zhangjiakou,40.81,114.88,76.37,50,50,6.53,CN,1592758942
507,Hazorasp,41.32,61.07,84.2,28,28,4.7,UZ,1592758942
508,Pahrump,36.21,-115.98,95.0,15,15,3.0,US,1592758943
509,Heyang,26.1,107.47,72.88,94,94,4.94,CN,1592758943
510,Balkanabat,39.51,54.37,79.56,52,52,8.93,TM,1592758943
511,Dingle,11.0,122.67,78.55,83,83,3.11,PH,1592758943
512,Tilichiki,60.47,166.1,55.36,76,76,4.18,RU,1592758943
513,Ngorongoro,-3.24,35.49,55.49,78,78,3.62,TZ,1592758943
514,Makakilo City,21.35,-158.09,73.4,78,78,3.36,US,1592758943
515,Andros,37.83,24.93,78.01,52,52,4.0,GR,1592758943
516,Bandar-e Lengeh,26.56,54.88,91.4,66,66,9.17,IR,1592758944
518,Amapá,1.0,-52.0,81.23,86,86,3.83,BR,1592758944
519,Kavarna,43.43,28.33,71.01,77,77,6.93,BG,1592758891
520,Asău,46.43,26.4,64.0,93,93,1.45,RO,1592758944
521,Upata,8.01,-62.4,90.0,67,67,3.0,VE,1592758944
523,Atar,20.52,-13.05,110.61,9,9,16.6,MR,1592758944
525,Mamlyutka,54.94,68.54,53.2,71,71,7.56,KZ,1592758945
526,Nísia Floresta,-6.09,-35.21,84.2,62,62,18.34,BR,1592758945
527,Alekseyevka,50.63,38.69,69.51,82,82,15.79,RU,1592758945
528,Bilibino,68.05,166.44,69.76,44,44,4.76,RU,1592758945
529,Thunder Bay,48.4,-89.32,69.8,52,52,5.82,CA,1592758945
530,Abu Dhabi,24.47,54.37,90.0,70,70,9.17,AE,1592758808
531,Bongandanga,1.5,21.05,81.37,52,52,0.89,CD,1592758945
532,Ferrol,43.48,-8.24,68.0,72,72,8.05,ES,1592758945
533,Meulaboh,4.14,96.13,76.73,92,92,6.17,ID,1592758787
534,Khrebtovaya,56.7,104.25,58.42,70,70,3.65,RU,1592758946
535,Flinders,-34.58,150.86,48.0,78,78,4.0,AU,1592758946
536,Wattegama,6.8,81.48,79.52,72,72,3.27,LK,1592758946
537,Waipawa,-41.41,175.52,51.8,87,87,9.17,NZ,1592758946
538,Águas Belas,-9.11,-37.12,79.79,49,49,15.82,BR,1592758946
540,Pierre,44.37,-100.35,66.2,77,77,4.7,US,1592758821
541,Makkah al Mukarramah,21.43,39.83,88.23,35,35,6.02,SA,1592758946
542,Ambulu,-8.35,113.61,75.45,85,85,4.59,ID,1592758947
543,Matara,5.95,80.54,81.12,83,83,13.49,LK,1592758810
544,Vanimo,-2.67,141.3,78.53,83,83,2.98,PG,1592758947
545,Henties Bay,-22.12,14.28,62.01,77,77,5.01,NA,1592758947
546,Longyearbyen,78.22,15.64,41.0,75,75,4.7,SJ,1592758947
547,Acaraú,-2.89,-40.12,85.14,61,61,13.85,BR,1592758947
548,Saquarema,-22.92,-42.51,84.2,66,66,9.17,BR,1592758841
549,Kamiiso,41.82,140.65,55.9,89,89,6.33,JP,1592758947
550,Noshiro,40.2,140.02,59.38,85,85,8.32,JP,1592758948
551,Beyneu,45.32,55.2,88.47,12,12,16.73,KZ,1592758948
553,Swan Hill,-35.34,143.55,42.01,95,95,7.18,AU,1592758948
554,São Félix do Xingu,-6.64,-51.99,89.01,43,43,7.43,BR,1592758948
555,Kinsale,51.71,-8.53,60.8,55,55,16.11,IE,1592758948
556,Coalinga,36.14,-120.36,86.0,29,29,3.22,US,1592758948
557,Patiya,22.29,91.98,78.8,94,94,8.05,BD,1592758948
558,Perevoz,55.6,44.54,57.0,75,75,5.12,RU,1592758949
559,Departamento de Maldonado,-34.67,-54.92,59.0,93,93,8.05,UY,1592758793
560,Yukamenskoye,57.89,52.24,49.19,70,70,6.67,RU,1592758949
562,Rongcheng,30.63,117.85,70.38,94,94,2.93,CN,1592758949
563,São Filipe,14.9,-24.5,77.0,78,78,14.74,CV,1592758949
564,Atbasar,51.8,68.33,66.11,36,36,10.89,KZ,1592758949
565,Koulikoro,14.0,-7.75,102.94,18,18,9.71,ML,1592758949
566,Russell,32.35,-85.2,91.0,46,46,4.76,US,1592758950
567,Fukuechō,32.69,128.84,72.75,83,83,5.46,JP,1592758950
568,Itarema,-2.92,-39.92,85.03,60,60,14.16,BR,1592758950
569,Ivdel',60.69,60.42,47.93,94,94,3.96,RU,1592758950
570,Alberdi,-32.89,-60.69,66.99,48,48,16.11,AR,1592758950
571,Bulungu,-4.55,18.6,79.27,38,38,2.84,CD,1592758950
572,Wangqing,43.32,129.76,62.33,93,93,5.06,CN,1592758950
573,Great Falls,47.5,-111.3,69.01,52,52,14.99,US,1592758950
574,Coquimbo,-29.95,-71.34,60.8,77,77,5.82,CL,1592758951
575,Ola,59.58,151.28,46.65,88,88,1.97,RU,1592758777
577,Anloga,5.79,0.9,80.6,83,83,10.29,GH,1592758951
578,Tartagal,-22.52,-63.8,81.39,50,50,7.0,AR,1592758951
579,Vigeland,58.08,7.3,64.99,73,73,4.0,NO,1592758951
580,Ambon City,-3.7,128.18,81.0,13,13,14.05,ID,1592758951
581,Yerbogachën,61.28,108.01,65.25,55,55,3.85,RU,1592758951
582,Nsanje,-16.92,35.26,66.72,61,61,2.98,MW,1592758952
583,Dhidhdhoo,6.88,73.1,83.1,75,75,12.88,MV,1592758952
584,Chlórakas,34.8,32.41,78.8,54,54,11.41,CY,1592758952
585,Zabaykal'sk,49.63,117.32,58.5,63,63,8.01,RU,1592758952
586,Phuthaditjhaba,-28.52,28.82,45.18,53,53,3.27,ZA,1592758952
587,Ina,35.83,137.95,62.1,82,82,4.23,JP,1592758952
588,Arrondissement de Brive-la-Gaillarde,45.25,1.5,69.01,84,84,1.01,FR,1592758952
589,Skibbereen,51.55,-9.27,60.8,55,55,16.11,IE,1592758953
590,Rosetta,31.4,30.42,78.8,78,78,13.87,EG,1592758953
591,Tezu,27.92,96.17,77.52,84,84,3.29,IN,1592758953
592,Inírida,3.87,-67.92,82.49,87,87,2.26,CO,1592758953
593,Lampang,18.33,99.5,78.01,78,78,1.14,TH,1592758953
594,Isla Vista,34.41,-119.86,63.0,82,82,3.09,US,1592758953
595,Moroni,-11.7,43.26,76.78,81,81,16.22,KM,1592758953
596,Klyuchi,52.27,79.17,60.82,44,44,10.13,RU,1592758953
597,Cap Malheureux,-19.98,57.61,72.0,72,72,8.01,MU,1592758953
598,Eureka,40.8,-124.16,62.01,96,96,3.0,US,1592758908
599,Abbeville,50.1,1.83,60.01,78,78,12.84,FR,1592758954
600,Sabla,12.75,4.71,101.71,19,19,5.17,NG,1592758954
601,Chapais,49.78,-74.85,86.0,40,40,16.11,CA,1592758773
602,Great Yarmouth,52.61,1.73,72.0,49,49,17.22,GB,1592758954
603,Caravelas,-17.71,-39.25,78.84,55,55,7.34,BR,1592758954
